[
  { "name": "New York", "lat": 40.7128, "lng": -74.006 },
  { "name": "Los Angeles", "lat": 34.0522, "lng": -118.2437 },
  { "name": "Chicago", "lat": 41.8781, "lng": -87.6298 },
  { "name": "Houston", "lat": 29.7604, "lng": -95.3698 },
  { "name": "Phoenix", "lat": 33.4484, "lng": -112.074 },
  { "name": "Philadelphia", "lat": 39.9526, "lng": -75.1652 },
  { "name": "San Antonio", "lat": 29.4241, "lng": -98.4936 },
  { "name": "San Diego", "lat": 32.7157, "lng": -117.1611 },
  { "name": "Dallas", "lat": 32.7767, "lng": -96.797 },
  { "name": "San Jose", "lat": 37.3382, "lng": -121.8863 },
  { "name": "Austin", "lat": 30.2672, "lng": -97.7431 },
  { "name": "Jacksonville", "lat": 30.3322, "lng": -81.6557 },
  { "name": "Fort Worth", "lat": 32.7555, "lng": -97.3308 },
  { "name": "Columbus", "lat": 39.9612, "lng": -82.9988 },
  { "name": "Charlotte", "lat": 35.2271, "lng": -80.8431 },
  { "name": "Indianapolis", "lat": 39.7684, "lng": -86.1581 },
  { "name": "San Francisco", "lat": 37.7749, "lng": -122.4194 },
  { "name": "Seattle", "lat": 47.6062, "lng": -122.3321 },
  { "name": "Denver", "lat": 39.7392, "lng": -104.9903 },
  { "name": "Washington DC", "lat": 38.9072, "lng": -77.0369 },
  { "name": "Nashville", "lat": 36.1627, "lng": -86.7816 },
  { "name": "Oklahoma City", "lat": 35.4676, "lng": -97.5164 },
  { "name": "El Paso", "lat": 31.7619, "lng": -106.485 },
  { "name": "Boston", "lat": 42.3601, "lng": -71.0589 },
  { "name": "Portland", "lat": 45.5152, "lng": -122.6784 },
  { "name": "Las Vegas", "lat": 36.1699, "lng": -115.1398 },
  { "name": "Detroit", "lat": 42.3314, "lng": -83.0458 },
  { "name": "Memphis", "lat": 35.1495, "lng": -90.049 },
  { "name": "Louisville", "lat": 38.2527, "lng": -85.7585 },
  { "name": "Baltimore", "lat": 39.2904, "lng": -76.6122 }
]
